[
  {
    "id": "101a62c8-9b53-4221-bbfb-d33babf579c5",
    "name": "Michelin",
    "logo": "true",
    "phone": "+33 6 16 52 62 45",
    "website": "",
    "address": "",
    "city": "",
    "postal_code": "",
    "country": "",
    "category": "Pneumatique",
    "members_benefits": "Michelin s’engage, sur toute la durée de la présente convention, à verser une somme\nde 10 000€ HT permettant la mise à disposition de matériel (flamme, stand, banderole, etc…) ainsi\nqu’une dotation en goodies pour leurs principaux événements",
    "benefits_conditions": ""
  },
  {
    "id": "d14e73dd-e922-41ea-8911-ada46f6a54a3",
    "name": "Detailing Shine",
    "logo": "false",
    "phone": "+33612825130",
    "website": "www.detailingshine.fr",
    "address": "1 Impasse du Temple",
    "city": "L'Isle-d'Abeau",
    "postal_code": "38080",
    "country": "France",
    "category": "Detailing",
    "members_benefits": "",
    "benefits_conditions": "",
    "latitude": 45.6099557,
    "longitude": 5.2168266
  },
  {
    "id": "fb1a77f1-97ab-4f3a-8330-0df8d7b692d1",
    "name": "Esthé Motors",
    "logo": "true",
    "phone": "0619911872",
    "website": "https://www.facebook.com/Esth%C3%A9-Motors-207824159947440/",
    "address": "6 Rue Emile Zola",
    "city": "Bergerac",
    "postal_code": "24100",
    "country": "France",
    "category": "Detailing",
    "members_benefits": "10 % de remise sur traitement céramique et traitement surfaces vitrées offert",
    "benefits_conditions": "Présentation de la carte de membre",
    "latitude": 44.8432479,
    "longitude": 0.496942
  },
  {
    "id": "bb964929-6ef1-44cf-85b8-35db186e41e8",
    "name": "Fantasticar Detailing",
    "logo": "false",
    "phone": "0628726713",
    "website": "https://www.facebook.com/Fantasticardetailing/",
    "address": "14 Rue Daniel Niord",
    "city": "Savigny-sur-Orge",
    "postal_code": "91600",
    "country": "France",
    "category": "Detailing",
    "members_benefits": "10 % de remise sur traitement céramique et traitement surfaces vitrées offert",
    "benefits_conditions": "Présentation de la carte de membre",
    "latitude": 48.6782675,
    "longitude": 2.3384686
  },
  {
    "id": "a1d1f4e3-316a-4e87-a104-fc84d7c3a31d",
    "name": "Detail-ion",
    "logo": "false",
    "phone": "0672570373",
    "website": "https://www.detail-ion.fr/",
    "address": "373 Chemin des Gypières",
    "city": "Auriol",
    "postal_code": "13390",
    "country": "France",
    "category": "Detailing",
    "members_benefits": "10% de réduction\n20% de réduction pour les 3 premiers mois de lancement (jusque fin août)",
    "benefits_conditions": "Présentation de la carte de membre",
    "latitude": 43.3633648,
    "longitude": 5.6160978
  },
  {
    "id": "c67e1e3e-e8a4-45e1-ab50-c9b28cee4531",
    "name": "Contrôle Technique du rond point de Folschviller",
    "logo": "true",
    "phone": "03 87 91 26 27",
    "website": "https://centre-controle-technique.autosecurite.com/grand-est/moselle/folschviller/44-avenue-foch",
    "address": "44 Avenue Foch",
    "city": "Folschviller",
    "postal_code": "57730",
    "country": "France",
    "category": "Contrôle technique",
    "members_benefits": "Contrôle technique à 60 euros pour tout véhicule\nRecharge sur prise T2 et café offerts",
    "benefits_conditions": "Présentation de la carte de membre",
    "latitude": 49.076312,
    "longitude": 6.692141
  },
  {
    "id": "b92c99bd-ab26-4452-8901-2c64e43e611f",
    "name": "Le French Cleaning SARL",
    "logo": "false",
    "phone": "06 06 66 51 89",
    "website": "https://lefrenchcleaning.fr/",
    "address": "26 Route de Colmar",
    "city": "Bergheim",
    "postal_code": "68750",
    "country": "France",
    "category": "Detailing",
    "members_benefits": "Avantage 1 - 10 % de réduction sur tout le site et un packaging personnalisé à votre image en utilisant le code promo Avantage 2 -  On peut remplacer la moto par une tesla de notre choix et ajouter le logo de l' association",
    "benefits_conditions": "Présentation de la carte de membre",
    "latitude": 48.1976671,
    "longitude": 7.3675046
  },
  {
    "id": "55709537-4bfb-4c7d-8ecd-0295a252c4cb",
    "name": "Eco Motion",
    "logo": "false",
    "phone": "07 81 64 97 98",
    "website": "www.eco-motion.fr",
    "address": "14 chemin des vignes",
    "city": "poniat",
    "postal_code": "31210",
    "country": "France",
    "category": "Recharge",
    "members_benefits": "5% de remise sur tout le site www.eco-motion.fr  5% de remise sur la borne et le forfait d'installation",
    "benefits_conditions": ""
  },
  {
    "id": "0cf999e2-1cf4-4d4b-97d8-70b1442c12e8",
    "name": "Mobilboard Nice",
    "logo": "false",
    "phone": "",
    "website": "https://www.mobilboard.com/fr/agence/segway/nice-promenade?gclid=CjwKCAjwqcKFBhAhEiwAfEr7zTjoOO16GMrP-N-j3CqH22AOagbu0-u5n1y4ZoqmEGHefeE-WEWhvRoCAHEQAvD_BwE",
    "address": "2 Rue Halévy",
    "city": "Nice",
    "postal_code": "6000",
    "country": "France",
    "category": "Tourisme",
    "members_benefits": "20 % de réductions sur : vélos de ville, vélos électriques, trottinette électrique, tours guidés en segway.(en retour, tagué mobilboard nice sur facebook et instagram)",
    "benefits_conditions": "Présentation de la carte de membre",
    "latitude": 43.6952744,
    "longitude": 7.2654229
  },
  {
    "id": "6ccea161-18a8-4670-be53-a8123d0d5508",
    "name": "Parc Fenestre",
    "logo": "false",
    "phone": "",
    "website": "https://www.parcfenestre.com",
    "address": "56 Rue Des Varennes",
    "city": "Aubières",
    "postal_code": "63170",
    "country": "France",
    "category": "Tourisme",
    "members_benefits": "Réduction de 6 euros pour l' achat d' un pass famille (minimum 4 personnes), offre non cumulable avec une offre en cours. L'accès au parc et aux jeux municipaux sont gratuits. L'accès aux attractions est payant, se fait par le biais du bracelet pass, ce dernier donne accès aux attractions de façon illimitée sur une journée. Avantages sur présentation de la carte d'adhérent.",
    "benefits_conditions": "Présentation de la carte de membre",
    "latitude": 45.756824,
    "longitude": 3.129909
  },
  {
    "id": "9498293c-7a7a-4564-9665-5522fd282b0a",
    "name": "Neoway’Anim",
    "logo": "false",
    "phone": "",
    "website": "https://www.trottxway.fr",
    "address": "24 levée de la loire",
    "city": "La Chapelle Aux Naux",
    "postal_code": "37130",
    "country": "France",
    "category": "Tourisme",
    "members_benefits": "Pour TROTTXWAY www.trottxway.fr, 10 % de remise sur les ballades en trottinette tout terrain de 2h en Tourraine (37) ● Pour GYROWAY www.gyroway.fr, 10 % sur les ballades de 2h en gyropodes tout terrain en Tourraine (37)",
    "benefits_conditions": "",
    "latitude": 47.318782,
    "longitude": 0.427887
  },
  {
    "id": "f729fcaf-b288-48fc-97ea-da6ad97c2624",
    "name": "CeltAventures",
    "logo": "false",
    "phone": "06 13 08 87 00",
    "website": "https://celtaventures.com",
    "address": "Rue du Ménez",
    "city": "Sarzeau",
    "postal_code": "56370",
    "country": "France",
    "category": "Tourisme",
    "members_benefits": "Réduction de 10% en présentant la carte de membre",
    "benefits_conditions": "Présenter sa carte de membre\nEn cas de paiement en ligne, utiliser le code TESLASC21",
    "latitude": 47.5275161,
    "longitude": -2.7684537
  },
  {
    "id": "c2b8d96c-4f4c-4f31-9c59-20b93c7095c6",
    "name": "Carat Detailing",
    "logo": "true",
    "phone": "0624298609",
    "website": "https://www.caratdetailing.com",
    "address": "8 rue de perignat",
    "city": "Cournon D'auvergne",
    "postal_code": "63800",
    "country": "France",
    "category": "Detailing",
    "members_benefits": "10 % de reduction sur traitement céramique et traitement des surfaces vitrées offert",
    "benefits_conditions": "Présentation de la carte de membre",
    "latitude": 45.7421509,
    "longitude": 3.1631743
  },
  {
    "id": "ba0c2be3-e6fa-4bff-b553-6069a275967f",
    "name": "AWRS Rouen",
    "logo": "false",
    "phone": "06 28 53 94 50",
    "website": "https://www.awrs-rouen.fr",
    "address": "11 Rue Aux Juifs-Bat 32",
    "city": "Darnetal",
    "postal_code": "76160",
    "country": "France",
    "category": "Réparation jantes",
    "members_benefits": "15 % de réduction sur présentation de la carte membre, valable sur les jantes Tesla mais aussi sur un véhicule d' une autre marque",
    "benefits_conditions": "Présentation de la carte de membre",
    "latitude": 49.4449083,
    "longitude": 1.1519145
  },
  {
    "id": "5b30c2f7-d130-4c6b-9afd-7c1d860b7b11",
    "name": "Savoie Loisir",
    "logo": "false",
    "phone": "981616181",
    "website": "https://www.savoie-loisir.com",
    "address": "83 impasse lavoisier",
    "city": "Pontcharra",
    "postal_code": "38530",
    "country": "France",
    "category": "Tourisme",
    "members_benefits": "●        10% sur toutes les prestations hors promo, hors offres speciales : https://www.savoie-loisir.com/",
    "benefits_conditions": "Présentation de la carte de membre",
    "latitude": 45.423281,
    "longitude": 6.006507
  },
  {
    "id": "1585e6ab-e983-4c9b-b9a7-48dd48f50416",
    "name": "Côté Thalasso Île de Ré",
    "logo": "false",
    "phone": "",
    "website": "www.cote-thalasso.fr",
    "address": "avenue d’Antioche Pointe de Grignon",
    "city": "Ars en Ré",
    "postal_code": "17590",
    "country": "France",
    "category": "Tourisme",
    "members_benefits": "-25% sur les Cures, Escales et Séjours liberté\n -20% sur les Cures externes, journées, 1⁄2 journées et soins à la carte\n -10% sur l’Hébergement avec accès à l’Espace Forme Marin",
    "benefits_conditions": "Présentation de la carte de membre\nPar téléphone, par mail ou sur notre site : www.cote-thalasso.fr\nCôté Thalasso Île de Ré au 05.46.29.10.00 ou reservations@cote-thalasso.fr\nCôté Thalasso Banyuls sur Mer au 04.68.98.36.66 ou reservations@cote-thalasso.fr",
    "latitude": 46.208056,
    "longitude": -1.515833
  },
  {
    "id": "c686cbbb-da71-4d38-8a11-d9433601456a",
    "name": "Auto Care Detail",
    "logo": "false",
    "phone": "07 77 11 71 82",
    "website": "https://www.autocaredetail.fr",
    "address": "Rue Raymond Legendre",
    "city": "Cormeille",
    "postal_code": "27260",
    "country": "France",
    "category": "Detailing",
    "members_benefits": "●        20% de remise sur les prestations (après devis sur tarif normal) + un lavage offert pour les plus grosses prestations comme rénovation et traitement céramique.",
    "benefits_conditions": "Présentation de la carte de membre",
    "latitude": 45.506841,
    "longitude": -0.7013186
  },
  {
    "id": "5c345b53-423e-4ad9-8805-125408e8058f",
    "name": "Ozenne - Moteurs & Styles",
    "logo": "false",
    "phone": "668012952",
    "website": "https://www.facebook.com/Ozenne-Moteurs-Styles-102259647978670/",
    "address": "35 Route D'harcourt",
    "city": "Saint Martin De Fontenay",
    "postal_code": "14320",
    "country": "France",
    "category": "Garage",
    "members_benefits": "●        20 % de remise sur les pare brise et 25% sur la main d oeuvre \n●        20 % de remise sur tout élément de carrosserie et 25% de remise sur la main d’ oeuvre (peinture RM agréée Tesla) \n●        Montage et équilibrage pneus offert\n●        20 % de remise sur la main d'œuvre pour les trains roulants (disques, plaquettes…)\n●        20% de remise pour faire teinter ses vitres",
    "benefits_conditions": "Présentation de la carte de membre",
    "latitude": 49.1151873,
    "longitude": -0.3741366
  },
  {
    "id": "baf04d50-6328-4311-b5cb-bfaab5f2b806",
    "name": "Glastint Bourron -Marlotte",
    "logo": "false",
    "phone": "06 98 28 78 58",
    "website": "https://www.glastint.com/centres/vitres-teintees/nemours/",
    "address": "24 rue National 7",
    "city": "Bourron Marlotte",
    "postal_code": "77780",
    "country": "France",
    "category": "Detailing",
    "members_benefits": "20 % de reduction vitres teintées, et 10% ppf céramique",
    "benefits_conditions": "Présentation de la carte de membre",
    "latitude": 48.3408614,
    "longitude": 2.7056355
  },
  {
    "id": "c7e6451d-9e36-4339-928e-1c8bcfbe0c01",
    "name": "Simfactory Bordeaux",
    "logo": "false",
    "phone": "972559447",
    "website": "https://www.simfactory.fr",
    "address": "9, rue dumont d'urville",
    "city": "Pugnac",
    "postal_code": "33710",
    "country": "France",
    "category": "Tourisme",
    "members_benefits": "Remise de 10% sur toutes les sessions de pilotage, les privatisations et les coaching de pilotage\n3 sessions achetées = la 4ème offerte",
    "benefits_conditions": "Présentation de la carte de membre"
  },
  {
    "id": "e1237664-4d16-4be7-ad1a-d3154d90b58f",
    "name": "AutoClean",
    "logo": "false",
    "phone": "645593216",
    "website": "https://www.autoclean-royan.com",
    "address": "3 Rue D’Arsonval",
    "city": "Royan",
    "postal_code": "17200",
    "country": "France",
    "category": "Detailing",
    "members_benefits": "10% de remise sur les traitements céramique.",
    "benefits_conditions": "Présentation de la carte de membre",
    "latitude": 45.6323612,
    "longitude": -0.997619
  },
  {
    "id": "d8d39dfc-7bbf-4e0a-adda-d8f0ff824748",
    "name": "Passion Esthetic Auto",
    "logo": "true",
    "phone": "0613120748",
    "website": "https://www.facebook.com/Passion-Esthetic-AUTO-105456401410391/",
    "address": "55 Allée Camille Claudel",
    "city": "Bourg-Achard",
    "postal_code": "27310",
    "country": "France",
    "category": "Detailing",
    "members_benefits": "● Nettoyage extérieur simple offert pour la réalisation d'un nettoyage intérieur premium\n● Nettoyage intérieur simple offert pour la réalisation d'un nettoyage extérieur premium",
    "benefits_conditions": "Présentation de la carte de membre",
    "latitude": 49.3467727,
    "longitude": 0.8169589
  },
  {
    "id": "9e31362e-305d-4eb3-933d-85d9a72b5e0c",
    "name": "Anizy - Moteurs & Styles",
    "logo": "false",
    "phone": "668012952",
    "website": "https://www.facebook.com/moteurs.styles/",
    "address": "32 rue principale",
    "city": "Anisy",
    "postal_code": "14610",
    "country": "France",
    "category": "Garage",
    "members_benefits": "20 % de remise sur les pare brise et 25% sur la main d oeuvre \n●        20 % de remise sur tout élément de carrosserie et 25% de remise sur la main d’ oeuvre (peinture RM agréée Tesla) \n●        Montage et équilibrage pneus offert\n●        20 % de remise sur la main d'œuvre pour les trains roulants (disques, plaquettes…)\n●        20% de remise pour faire teinter ses vitres",
    "benefits_conditions": "Présentation de la carte de membre",
    "latitude": 49.2495601,
    "longitude": -0.3965744
  },
  {
    "id": "c22d565b-7a18-4d47-ab1f-87aac1d800e6",
    "name": "Hotel Restaurant Ostella",
    "logo": "false",
    "phone": "771816354",
    "website": "https://www.hotel-ostella.com/fr/restaurant",
    "address": "17 rue Maréchal Juin",
    "city": "Bastia",
    "postal_code": "20600",
    "country": "France",
    "category": "Tourisme",
    "members_benefits": "10% de remise sur l'hébergement valable à l'année sur le tarif public (remise non cumulable avec les offres en cours)\n10% sur la restauration valable toute l'année sur les déjeuners et dîners (remise sur la note globale de la table, offre non cumulable avec les offres en cours)\n10% sur votre carte de soin SPA et instituts valable à l'année (offre non cumulable avec les offres en cours)\nAccès au centre de bien être gratuitement (jacuzzi, piscine, salle de sport)\nAccès à la borne de recharge gratuitement",
    "benefits_conditions": "Présentation de la carte de membre",
    "latitude": 42.6678021,
    "longitude": 9.4406206
  },
  {
    "id": "27f60465-ffe4-4f26-82bc-ad6004960b3e",
    "name": "Charge Guru",
    "logo": "false",
    "phone": "01 88 24 60 00",
    "website": "https://chargeguru.com/fr/",
    "address": "32 Rue de Jeuneurs",
    "city": "Paris",
    "postal_code": "75002",
    "country": "France",
    "category": "Recharge",
    "members_benefits": "Réduction de 20 % sur le câble de recharge spécial Tesla evchargeking 32 A\nTriphasé, 6 mètres pour toute installation réalisée par Charge Guru",
    "benefits_conditions": "Présentation de la carte de membre",
    "latitude": 48.869622,
    "longitude": 2.3446582
  },
  {
    "id": "36c4bcf1-f14a-465c-9ef5-dced7888c71a",
    "name": "Atelier SIX",
    "logo": "false",
    "phone": "0492277078",
    "website": "www.carrosserie-six.fr",
    "address": "120 Chemin des clausonnes",
    "city": "Valbonne",
    "postal_code": "06560",
    "country": "France",
    "category": "Réparation jantes",
    "members_benefits": "Peintures jantes couleur au modèle : 135 euro TTC au lieu de 1 50 euro TTC\n4 peintures jantes : 408 euro fiC au lieu de 500 TTC\nRectifications + vernis : 216 euro TTC au lieu de 250 TTC\n4 rectilications + vernis : 720 euro TTC au lieu de 960 TTC\nRedressage 135 euro TTC au lieu de 150 TTC\nSoudure 108 TTC au lieu de 120 TTC\nRedressage + soudure : 189 euro TTC au lieu de 210 TTC",
    "benefits_conditions": "Présentation de la carte de membre",
    "latitude": 43.603746,
    "longitude": 7.052609
  },
  {
    "id": "b2d1476f-2b37-45c5-bf56-a9388e5b6933",
    "name": "Jantes Alu Services Rennes",
    "logo": "false",
    "phone": "676200557",
    "website": "www.jantesaluservices.com",
    "address": "2 rue de la Frébadière",
    "city": "Cesson Sévigné",
    "postal_code": "35510",
    "country": "France",
    "category": "Réparation jantes",
    "members_benefits": "10% sur la prestation complète\n20% sur le dévoilage",
    "benefits_conditions": "Présentation de la carte de membre",
    "latitude": 48.1197799,
    "longitude": -1.6038829
  },
  {
    "id": "895ca252-d16c-49ae-9c1f-47309be299de",
    "name": "Jantes Alu Services Nantes",
    "logo": "false",
    "phone": "0676200557",
    "website": "www.jantesaluservices.com",
    "address": "21 rue jean palach",
    "city": "Saint Herblain",
    "postal_code": "44800",
    "country": "France",
    "category": "Réparation jantes",
    "members_benefits": "10% sur la prestation complète\n20% sur le dévoilage",
    "benefits_conditions": "Présentation de la carte de membre",
    "latitude": 47.2233007,
    "longitude": -1.6346964
  },
  {
    "id": "62b7b9cf-5301-46ff-8e2e-7b1f3f124037",
    "name": "Jantes Alu Services Le Mans",
    "logo": "false",
    "phone": "676200557",
    "website": "www.jantesaluservices.com",
    "address": "13 Rue Michael Faraday",
    "city": "Le Mans",
    "postal_code": "72100",
    "country": "France",
    "category": "Réparation jantes",
    "members_benefits": "10% sur la prestation complète\n20% sur le dévoilage",
    "benefits_conditions": "Présentation de la carte de membre",
    "latitude": 47.9602493,
    "longitude": 0.1784169
  },
  {
    "id": "8f725777-e3b8-4a7e-866f-8d768ecf5500",
    "name": "Jantes Alu Services Caen",
    "logo": "false",
    "phone": "676200557",
    "website": "www.jantesaluservices.com",
    "address": "700 Boulevard Charles Croq",
    "city": "Ifs",
    "postal_code": "14123",
    "country": "France",
    "category": "Réparation jantes",
    "members_benefits": "10% sur la prestation complète\n20% sur le dévoilage",
    "benefits_conditions": "Présentation de la carte de membre",
    "latitude": 49.1380679,
    "longitude": -0.3496385
  },
  {
    "id": "93e5c12f-09d7-4d27-aad7-e5b88a197e48",
    "name": "Mobilboard Carnac",
    "logo": "false",
    "phone": "",
    "website": "www.MOBILBOARD.com",
    "address": "9 allée Du Parc",
    "city": "Carnac",
    "postal_code": "56340",
    "country": "France",
    "category": "Tourisme",
    "members_benefits": "5 euro de remise sur les balades en gyropode\n2 euro de remise sur la locations de trottinettes électriques",
    "benefits_conditions": "Présentation de la carte de membre",
    "latitude": 47.5727584,
    "longitude": -3.0745293
  },
  {
    "id": "5e594a69-42b9-4a18-86f4-db809a059602",
    "name": "Gyroparc",
    "logo": "false",
    "phone": "",
    "website": "www.mobilboard.com",
    "address": "2 Route Du Hahon",
    "city": "Plouhamel",
    "postal_code": "56340",
    "country": "France",
    "category": "Tourisme",
    "members_benefits": "2 euros de remise par personne et par engin",
    "benefits_conditions": "Présentation de la carte de membre"
  },
  {
    "id": "72f4e8f9-8ad9-403b-84e8-c398709cc013",
    "name": "Distinctive Auto",
    "logo": "false",
    "phone": "0658173395",
    "website": "https://distinctiveauto.fr/",
    "address": "2b impasse des Artisans",
    "city": "l'Escale",
    "postal_code": "04160",
    "country": "France",
    "category": "Detailing",
    "members_benefits": "15% de réduction sur chaque prestations effectuées (polissage, lustrage, débosselage sans peinture, vente de produits et accessoires d'entretien, traitement céramique....) formation journée detailing\nle 07 nettoyant vitres Distinctive Auto offert pour toute prestation réalisée\n15% sur tous les produits de la boutique\nPossibilité d'organiser des événements au centre",
    "benefits_conditions": "Présentation de la carte de membre\nCode promotionnel TOCF15 pour la boutique",
    "latitude": 44.0784831,
    "longitude": 6.0204621
  },
  {
    "id": "92c776bc-d531-4630-abee-de05fd0edbe2",
    "name": "EstheticSunCar",
    "logo": "false",
    "phone": "0662633810",
    "website": "http://www.estheticsuncar.com/EstheticSunCar/Esthetic_Sun_Car.html",
    "address": "8 Rue Pierre Berregovoy",
    "city": "Coprs-nuds",
    "postal_code": "35150",
    "country": "France",
    "category": "Detailing",
    "members_benefits": "15% de remise sur l'ensemble des prestations (nettoyage, lustrage, traitement céramique .. ) et rénovations des cuirs",
    "benefits_conditions": "Présentation de la carte de membre"
  },
  {
    "id": "fa903d87-9660-471e-8c85-c97d99cba406",
    "name": "Light Protect Cannes",
    "logo": "false",
    "phone": "0651510333",
    "website": "",
    "address": "2 rue Francois Rebuffel",
    "city": "Le Cannet",
    "postal_code": "06110",
    "country": "France",
    "category": "Detailing",
    "members_benefits": "10% de remise sur toutes les prestations",
    "benefits_conditions": "Présentation de la carte de membre",
    "latitude": 43.5677469,
    "longitude": 7.0181419
  },
  {
    "id": "5c23a1e1-7cc5-43b2-8dc1-411515b30d2a",
    "name": "SB ENERGY",
    "logo": "false",
    "phone": "328442712",
    "website": "http://www.sbenergy.fr",
    "address": "Parc d'activité de la verte rue - Allée des Roseaux",
    "city": "Bailleul",
    "postal_code": "59270",
    "country": "France",
    "category": "Photovoltaique",
    "members_benefits": "Déplacement offert pour les Owners\nDéplacement offert + 50 euro de réduction pour les owners+\nDéplacement offert + 100 euro de réduction pour les signatures",
    "benefits_conditions": "Présentation de la carte de membre",
    "latitude": 50.7396668,
    "longitude": 2.7349286
  },
  {
    "id": "ef73c65d-4430-486c-9ab6-851d5d333ba1",
    "name": "SARL Chriss Auto",
    "logo": "false",
    "phone": "673855720",
    "website": "",
    "address": "42 Rue Du Belvédère",
    "city": "Croisilles",
    "postal_code": "14220",
    "country": "France",
    "category": "Detailing",
    "members_benefits": "15% de remise sur tous les nettoyages intérieurs\n20% sur tous les nettoyages intérieurs avec entretiens des cuirs\n20 % de remise sur les lustrages",
    "benefits_conditions": "Présentation de la carte de membre",
    "latitude": 48.9964033,
    "longitude": -0.4471703
  },
  {
    "id": "ccf79e9d-82df-4040-8299-841bec2d5f16",
    "name": "Alternative propulsion",
    "logo": "true",
    "phone": "+33467767187",
    "website": "https://www.facebook.com/AlternativePropulsion",
    "address": "14 rue Jean Monnet",
    "city": "Boujan-Sur-Libron",
    "postal_code": "34760",
    "country": "France",
    "category": "Garage",
    "members_benefits": "10 % de remise sur Les forfaits géométrie, les montages et équilibrages des pneus et teintes des vitres",
    "benefits_conditions": "Présentation de la carte de membre",
    "latitude": 43.3641789,
    "longitude": 3.2451261
  },
  {
    "id": "c91d5f66-6904-4eed-92f0-a637258f9f2b",
    "name": "Exclusive Detailing",
    "logo": "false",
    "phone": "06 15 02 13 87",
    "website": "https://exclusive-detailing.fr",
    "address": "59 Route De La Chaise",
    "city": "Montussan",
    "postal_code": "33450",
    "country": "France",
    "category": "Detailing",
    "members_benefits": "Prestation sur véhicule neuf (sortie de concession ou à la concession) 20% de remise sur une prestation ou 15% de remise et un kit d' entretien offert \nPrestation pour un véhicule d’occasion (achat d occasion, pour le plaisir ou pour la revente) 15 % de remise sur une prestation ou 12 % de remise et un kit d'entretien offert\n pour l'une ou l'autre des offres l'entretien annuel est offert",
    "benefits_conditions": "Présentation de la carte de membre",
    "latitude": 44.878091,
    "longitude": -0.418966
  },
  {
    "id": "fd03ab50-a66d-4997-87a8-a563c7c58677",
    "name": "RVB Recharge",
    "logo": "false",
    "phone": "618102234",
    "website": "https://www.rvbrecharge.com",
    "address": "22 Allée Alan Turing",
    "city": "Clermont-Ferrand",
    "postal_code": "63000",
    "country": "France",
    "category": "Recharge",
    "members_benefits": "10 % de remise sur la pose d’une borne sur présentation de la carte de membre",
    "benefits_conditions": "Présentation de la carte de membre",
    "latitude": 45.7591487,
    "longitude": 3.1300515
  },
  {
    "id": "4c7ffbed-bf79-4ac0-94fa-8af553fa16a0",
    "name": "Opulence Motors",
    "logo": "true",
    "phone": "337809711",
    "website": "https://opulence-motors.com",
    "address": "460 Avenue de la Quieira",
    "city": "Mouans Sartoux",
    "postal_code": "6370",
    "country": "France",
    "category": "Detailing",
    "members_benefits": "35 % de remise sur un traitement céramique complet, vitrage, carrosserie et jantes\nService de conciergerie 7/7 , récupération/livraison du véhicule au domicile ou lieu de travail, checkup complet du véhicule, lavage à la main \nRénovation de jantes , 50% de remise sur la 4 ème jantes \nPossibilité de remises sur d' autres prestations à la demande",
    "benefits_conditions": "Présentation de la carte de membre",
    "latitude": 43.6203852,
    "longitude": 6.9703991
  },
  {
    "id": "45c2b88b-9f73-4b4d-84c1-8b74cee79ca8",
    "name": "Raise Detailing Car",
    "logo": "false",
    "phone": "769229971",
    "website": "https://raisedetailingcar.com",
    "address": "19 Route Du château",
    "city": "Cernex",
    "postal_code": "74350",
    "country": "France",
    "category": "Detailing",
    "members_benefits": "●        15 % de remise sur toutes les prestations \n●        20 % de remise sur toutes les prestations si souscription d’un abonnement annuel",
    "benefits_conditions": "Présentation de la carte de membre",
    "latitude": 46.062736,
    "longitude": 6.0484717
  },
  {
    "id": "fe66ceac-9e61-4cf6-a51d-507243ec692b",
    "name": "ECO CLEAN AUTO",
    "logo": "true",
    "phone": "0625321837",
    "website": "https://ecocleanauto.fr",
    "address": "415 Rue Claud Nicolas Ledoux",
    "city": "Aix en provence",
    "postal_code": "13290",
    "country": "France",
    "category": "Detailing",
    "members_benefits": "●        20 % de remise sur l' ensemble des prestations proposées (lavage, polissage, lustrage, traitement céramique …)",
    "benefits_conditions": "Présentation de la carte de membre",
    "latitude": 43.5298424,
    "longitude": 5.4474738
  },
  {
    "id": "1210857a-cc33-4aef-b811-ca8c6b3ec6bb",
    "name": "Youth Detailing",
    "logo": "true",
    "phone": "0671824372",
    "website": "https://www.youth-detailing.fr",
    "address": "8 impasse des pins,",
    "city": "Gujan-Mestras",
    "postal_code": "33470",
    "country": "France",
    "category": "Detailing",
    "members_benefits": "5 % de remise sur toutes les prestations, sauf les produits à la vente (shampoing...)",
    "benefits_conditions": "Présentation de la carte de membre",
    "latitude": 44.609529,
    "longitude": -1.072361
  },
  {
    "id": "4a57cb53-db31-49ff-9f7c-ada8570cb077",
    "name": "Green drive",
    "logo": "true",
    "phone": "476900409",
    "website": "https://www.greendrive-accessories.com/fr/",
    "address": "18 Rue de Brotterode",
    "city": "Saint-Martin-le-Vinoux",
    "postal_code": "38950",
    "country": "France",
    "category": "Accessoires auto",
    "members_benefits": "Offrir en exclusivité à l'ensemble des adhérents une remise de 15% sur le site (sauf\npour les produits : Jantes, pneus, pièces MountainPassPerformance,\nUnpluggedPerformance, roues complètes, kit carrosserie)",
    "benefits_conditions": "Faire sa commande sur le site https://www.greendrive-accessories.com/fr/\nPuis utiliser le code de réduction situé dans votre espace membre du site du club",
    "latitude": 45.2138714,
    "longitude": 5.6886447
  },
  {
    "id": "6571f4a8-ac17-4e3a-b3bc-6bbacb08e917",
    "name": "Drive Elec- Allianz",
    "logo": "true",
    "phone": "04 50 96 04 70",
    "website": "www.drive-elec.com",
    "address": "53 rue pertuiset",
    "city": "bonneville",
    "postal_code": "74130",
    "country": "France",
    "category": "Assurance auto",
    "members_benefits": "8% de réduction sur vos contrats d'assurance",
    "benefits_conditions": "Lors de la demande de devis, indiquer votre appartenance au club et joindre votre derniere facture d'adhesion",
    "latitude": 46.0774129,
    "longitude": 6.4098901
  },
  {
    "id": "bcf4fe4b-1b43-414d-9a1a-8b15e59d05c1",
    "name": "Gïte Hervé Vauthier",
    "logo": "false",
    "phone": "",
    "website": "https://abnb.me/hQPE9wywSfb",
    "address": "88100 Taintrux",
    "city": "Taintrux",
    "postal_code": "88100",
    "country": "France",
    "category": "Tourisme",
    "members_benefits": "Accès recharge borne 11kw à 0.2€/kw\n25kw offert par jour sur un court séjour\n100kw offert par semaine pour un séjour d'une semaine minimum",
    "benefits_conditions": "",
    "latitude": 48.2499875,
    "longitude": 6.900338
  },
  {
    "id": "8f47b347-8ce5-4980-bf2f-63b00cc8d765",
    "name": "LP Concept",
    "logo": "true",
    "phone": "06 70 39 58 95",
    "website": "https://www.facebook.com/profile.php?id=100010867084762",
    "address": "46000 Cahors",
    "city": "Cahors",
    "postal_code": "46002",
    "country": "France",
    "category": "Detailing",
    "members_benefits": "20% sur travaux de peinture, carrosserie,detailing, covering...",
    "benefits_conditions": "Lors de la demande de devis, indiquer votre appartenance au club et joindre votre derniere facture d'adhesion",
    "latitude": 44.4513958,
    "longitude": 1.4390349
  },
  {
    "id": "bb0d4a33-8af5-4fa6-adfe-498b2c7367f0",
    "name": "Easy Controle",
    "logo": "false",
    "phone": "",
    "website": "",
    "address": "4 Rue Fra Angelico",
    "city": "Amiens",
    "postal_code": "80080",
    "country": "France",
    "category": "Contrôle technique",
    "members_benefits": "30%  de Réduction sur le controle technique\ncontre-visite offerte\nBorne de recharge gratuite et café offert",
    "benefits_conditions": "Lors de la demande de devis, indiquer votre appartenance au club et joindre votre derniere facture d'adhesion",
    "latitude": 49.9209477,
    "longitude": 2.2914748
  },
  {
    "id": "709a96a9-c3c5-4b85-a94c-4cb5d3351eb3",
    "name": "Dip Color",
    "logo": "true",
    "phone": "0782560260",
    "website": "https://www.dipcolor.fr",
    "address": "3 Rue Joseph Pontier",
    "city": "Fonsorbes",
    "postal_code": "31470",
    "country": "France",
    "category": "Detailing",
    "members_benefits": "10% de Réduction sur Detailing et Céramique",
    "benefits_conditions": "Présentation de la carte de membre",
    "latitude": 43.5486125,
    "longitude": 1.243007
  },
  {
    "id": "818c0b97-97f3-4ae4-9657-046c7676361f",
    "name": "Domaine de Suzel",
    "logo": "false",
    "phone": "04 37 06 39 66",
    "website": "https://www.domainedesuzel.com/",
    "address": "267 Route de Suzel",
    "city": "Vignieu",
    "postal_code": "38890",
    "country": "France",
    "category": "Tourisme",
    "members_benefits": "recharge gratuite",
    "benefits_conditions": "présenter carte de membres voire facture d'adhesion",
    "latitude": 45.6345577,
    "longitude": 5.4335913
  },
  {
    "id": "2fc52bf9-3e37-4b79-8b6c-b1a9c31ef45e",
    "name": "Chateau Lacoste",
    "logo": "true",
    "phone": "0442619292",
    "website": "https://chateau-la-coste.com/fr/",
    "address": "2750 Route De La Cride",
    "city": "Le Puy-Sainte-Réparade",
    "postal_code": "13610",
    "country": "France",
    "category": "Tourisme",
    "members_benefits": "20% sur les coffretts cadeaux\nApéritif offert pour séminaire et évènements\n20% sur les Vins Bio",
    "benefits_conditions": "Code catalogue ici :\nhttps://drive.google.com/file/d/1Qfq6gui0nwve4Q8lX4GPFQ-N9PMtfG_0/view?usp=sharing",
    "latitude": 43.6350426,
    "longitude": 5.4231827
  },
  {
    "id": "3fe3b44f-8f52-493c-ba36-d25d9c54593b",
    "name": "Dauphiné Detailing",
    "logo": "true",
    "phone": "0683252852",
    "website": "www.dauphine-detailling.fr",
    "address": "46 Rue de la République",
    "city": "Les Abrets en Dauphiné",
    "postal_code": "38490",
    "country": "France",
    "category": "Detailing",
    "members_benefits": "10% de remise sur les prestations\n2 options souscrites, la 3eme offerte\n1 lavage d'entretien offert pour toute céramique réalisée",
    "benefits_conditions": "Présentation de la carte de membre",
    "latitude": 45.5370288,
    "longitude": 5.5778144
  },
  {
    "id": "1f2937da-a173-4642-9654-5da957d17e6f",
    "name": "Glastint Haguenau",
    "logo": "true",
    "phone": "+33611564131",
    "website": "https://www.glastint.com/centres/haguenau/",
    "address": "101 Route de Marienthal",
    "city": "Haguenau",
    "postal_code": "67500",
    "country": "France",
    "category": "Detailing",
    "members_benefits": "En négociation",
    "benefits_conditions": "Présentation de la carte de membre",
    "latitude": 48.7929188,
    "longitude": 7.8072052
  },
  {
    "id": "85e7fb26-3697-40b7-9770-6dc67dff43c6",
    "name": "Riviera Detailing",
    "logo": "true",
    "phone": "+33676984675",
    "website": "https://www.riviera-detailing.com",
    "address": "909 Chemin de Lauvert",
    "city": "Antibes",
    "postal_code": "6600",
    "country": "France",
    "category": "Detailing",
    "members_benefits": "Kit detailing offert pour toute céramique réalisée\nPrêt d’une voiture gratuitement pendant l’immobilisation de la céramique",
    "benefits_conditions": "Présentation de la carte de membre",
    "latitude": 43.579723,
    "longitude": 7.090513
  },
  {
    "id": "81563137-7f9f-4b2a-a2fd-4e6ec4008069",
    "name": "Costume Car",
    "logo": "true",
    "phone": "+33698910917",
    "website": "https://www.costume-car.com/",
    "address": "Atelier 8A boulevard d'herseaux",
    "city": "Mouscron",
    "postal_code": "7711",
    "country": "Belgique",
    "category": "Detailing",
    "members_benefits": "- Pour une prestation PPF, un kit entretien PPF offert\n- Pour une prestation céramique, un kit entretien céramique offert\n- Pour la pose de vitres teintées, un kit de nettoyage de vitres offert\n- Pour la pose de protections Alloygator ou peintures des étriers, un kit lavage jantes est offert.",
    "benefits_conditions": "Prendre contact ( COORDONNEES) et indiquer votre appartenance au club. La présentation de votre derniere facture d'adhesion vous sera éventuellement demandé",
    "latitude": 50.7436672,
    "longitude": 3.2142729
  },
  {
    "id": "b3615c57-5994-4c9f-bf9e-c42af20930d9",
    "name": "Cleaning district",
    "logo": "true",
    "phone": "0616645620",
    "website": "www.facebook.com/cleaningdistrict",
    "address": "23 r Roger Salengro",
    "city": "CHAULNES",
    "postal_code": "80320",
    "country": "France",
    "category": "Detailing",
    "members_benefits": "10% sur le site produits phoenix\nRemise 10% sur le site avec le code TM3\nFrais de ports gratuit a partir de 60 euro\n25 % prestations detailling",
    "benefits_conditions": "se connectant sur le site \nmettre le code TM3/ presenter la carte membre\nprendre contact www.facebook.com/cleaningdistrict",
    "latitude": 49.8160286,
    "longitude": 2.8023348
  },
  {
    "id": "413eedb0-0ede-44c6-af02-a416b52c5c18",
    "name": "Clean & Covering Automobiles",
    "logo": "false",
    "phone": "07 77 96 17 96",
    "website": "https://www.cleanandcovering.fr/",
    "address": "2 Chemin de la Chapelle",
    "city": "Hannonville-sous-les-Côtes",
    "postal_code": "55210",
    "country": "France",
    "category": "Detailing",
    "members_benefits": "10 % de remise sur traitement céramique et traitment surfaces vitrées offert",
    "benefits_conditions": "Présentation de la carte de membre",
    "latitude": 49.0405388,
    "longitude": 5.6563762
  },
  {
    "id": "c5c887ff-c0c8-437b-9ffa-02c1b6a8cd19",
    "name": "Julien Estheticar",
    "logo": "false",
    "phone": "",
    "website": "https://www.facebook.com/JulienEsthetiCar/",
    "address": "41 RUE DU ZORNHOFF",
    "city": "MONSWILLER",
    "postal_code": "67700",
    "country": "France",
    "category": "Detailing",
    "members_benefits": "10% de remise et traitement surfaces vitrees offert pour toute céramique réalisé",
    "benefits_conditions": "Présentation de la carte de membre",
    "latitude": 48.7508263,
    "longitude": 7.382695
  },
  {
    "id": "95f89a9e-8b13-484f-abeb-c572fc93ea36",
    "name": "La nurserie",
    "logo": "true",
    "phone": "0607181585",
    "website": "https://www.misterbigdetailing.com/nouveau-centre-a-sundhouse-67920/",
    "address": "1b Rue de Sarlat",
    "city": "Sundhouse",
    "postal_code": "67920",
    "country": "France",
    "category": "Detailing",
    "members_benefits": "Pour un traitement full Graphène ou Céramique, traitement des jantes et des surfaces vitrées offert\nTraitement céramique Système X DiamonD SS Garantie 8 ans :\n- Model 3 1100€ TTC au lieu de 1590€ TTC\n- Model S 1400€ TTC au lieu de 1790€ TTC\n- Model X 1700€ TTC au lieu de 1990€ TTC\nTraitement Graphène WaxedShine GSHC Garantie 5 ans :\n- Model 3 1600€ TTC au lieu de 2200€ TTC\n- Model S 1900€ TTC au lieu de 2500€ TTC\n- Model X 2200€ TTC au lieu de 2700€ TTC\nVitres teintées :\n- Model 3 deux latéraux 200€ TTC, lunette arrière 150€ TTC au lieu de 399€ TTC\n- Model S deux latéraux 220€ TTC, lunette arrière 120€ TTC au lieu de 380€ TTC\n- Model X deux latéraux 290€ TTC, lunette arrière 120€ TTC au lieu de 470€ TTC\nNettoyage, transformations, PPF, covering, personnalisation :\n- 20% d réduction sur la main d'oeuvre \n- 10% de remise sur les pièces\nCarrosserie, réparations :\n- 20% d réduction sur la main d'oeuvre \n- 15% de remise sur les pièces\nUn véhicule de courtoisie sera mis à disposition",
    "benefits_conditions": "Présentation de la carte de membre",
    "latitude": 48.2494823,
    "longitude": 7.6112529
  },
  {
    "id": "4bc5e1bf-3159-40a5-832d-1410eee814b8",
    "name": "Aquarium de Lyon",
    "logo": "true",
    "phone": "0472666560",
    "website": "https://www.aquariumlyon.fr",
    "address": "7 Rue Stéphane Dechant",
    "city": "La Mulatière",
    "postal_code": "69350",
    "country": "France",
    "category": "Tourisme",
    "members_benefits": "Une entrée adulte à prix réduit : 12€ au lieu de 15€ valable pour l'adhérent et 3 adultes supplémentaires\nUne entrée enfant offerte pour une entrée adulte achetée, valable pour l'adhérent et 3 adultes accompagnants\nParkings P1 et P2 La Mulatière gratuits",
    "benefits_conditions": "Présentation de la carte de membre",
    "latitude": 45.7279926,
    "longitude": 4.8157438
  },
  {
    "id": "8c36d679-92c9-4490-9356-4a95c9f5326d",
    "name": "Restaurant Poivre Rouge Rochefort",
    "logo": "true",
    "phone": "0641662571",
    "website": "",
    "address": "97 Avenue d'Aunis",
    "city": "Rochefort",
    "postal_code": "17300",
    "country": "France",
    "category": "Tourisme",
    "members_benefits": "10 % de remise sur l' addition, borne de recharge à disposition",
    "benefits_conditions": "Présentation de la carte de membre",
    "latitude": 45.9546555,
    "longitude": -0.9769276
  },
  {
    "id": "dea9585f-4830-4488-a8f1-3e99e815efdb",
    "name": "Escape The City Nantes",
    "logo": "false",
    "phone": "06 11 18 24 30",
    "website": "https://facebook.com/escapethecity.game",
    "address": "",
    "city": "Nantes",
    "postal_code": "44002",
    "country": "France",
    "category": "Tourisme",
    "members_benefits": "Une remise de 10% sur tous les jeux d’escape game en intérieur ou extérieur",
    "benefits_conditions": "Une remise de 10% sur tous les jeux d’escape game en intérieur ou extérieur avec le code CLUBTESLA10",
    "latitude": 47.2186371,
    "longitude": -1.5541362
  },
  {
    "id": "f13c284e-a1d3-4cc4-af56-ffd179512103",
    "name": "Escape The City Bordeaux",
    "logo": "false",
    "phone": "06 11 18 24 30",
    "website": "https://facebook.com/escapethecity.game",
    "address": "",
    "city": "Bordeaux",
    "postal_code": "33002",
    "country": "France",
    "category": "Tourisme",
    "members_benefits": "Une remise de 10% sur tous les jeux d’escape game en intérieur ou extérieur",
    "benefits_conditions": "Une remise de 10% sur tous les jeux d’escape game en intérieur ou extérieur avec le code CLUBTESLA10",
    "latitude": 44.841225,
    "longitude": -0.5800364
  },
  {
    "id": "49401ecb-d002-4f4d-9fcd-5e0363e89fd5",
    "name": "Escape The City Rennes",
    "logo": "false",
    "phone": "06 11 18 24 30",
    "website": "https://facebook.com/escapethecity.game",
    "address": "",
    "city": "Rennes",
    "postal_code": "35002",
    "country": "France",
    "category": "Tourisme",
    "members_benefits": "Une remise de 10% sur tous les jeux d’escape game en intérieur ou extérieur",
    "benefits_conditions": "Une remise de 10% sur tous les jeux d’escape game en intérieur ou extérieur avec le code CLUBTESLA10",
    "latitude": 48.1113387,
    "longitude": -1.6800198
  },
  {
    "id": "c1a769fb-7967-4caa-9547-d49dccd0feac",
    "name": "Escape The City Chambéry",
    "logo": "false",
    "phone": "06 11 18 24 30",
    "website": "https://facebook.com/escapethecity.game",
    "address": "",
    "city": "Chambery",
    "postal_code": "73000",
    "country": "France",
    "category": "Tourisme",
    "members_benefits": "Une remise de 10% sur tous les jeux d’escape game en intérieur ou extérieur",
    "benefits_conditions": "Une remise de 10% sur tous les jeux d’escape game en intérieur ou extérieur avec le code CLUBTESLA10",
    "latitude": 45.5662672,
    "longitude": 5.9203636
  },
  {
    "id": "ce8a5b39-a4a8-424b-ab7a-36645695a328",
    "name": "Starenco",
    "logo": "false",
    "phone": "06 24 45 23 90",
    "website": "https://www.starenco.com",
    "address": "14 Rue Marie de Bourgogne",
    "city": "Chevigny-Saint-Sauveur",
    "postal_code": "21800",
    "country": "France",
    "category": "Photovoltaique",
    "members_benefits": "Selon les volontés du client et les contraintes techniques du site, déterminer le meilleur projet photovoltaïque. Évaluer le budget du projet, sa pertinence et sa rentabilité. Étude à partir des factures EDF et des photos de la maison. Rapport avec modélisation 3D. Offre pour professionnel ou particulier, prix 199 euros HT soit 238,80 euros TTC (remise de 33% sur la prestation “étude simplifiée”)\nSi le projet se confirme, Starenco peut conseiller des sociétés sérieuses et adaptées au projet.",
    "benefits_conditions": "Présentation de la carte de membre",
    "latitude": 47.305106,
    "longitude": 5.1335697
  },
  {
    "id": "70114d65-adb0-4f07-a3ce-cfcb0d99120e",
    "name": "Magic DSP",
    "logo": "false",
    "phone": "",
    "website": "http://magic-dsp.com",
    "address": "Rue des Berlines",
    "city": "DOUAI",
    "postal_code": "59500",
    "country": "France",
    "category": "Carrosserie",
    "members_benefits": "10% de remise, à condition d'établir le devis via l'application mobile Magic DSP",
    "benefits_conditions": "Présentation de la carte de membre",
    "latitude": 50.4096269,
    "longitude": 3.1073218
  },
  {
    "id": "cf7f8f4d-1ac2-49ab-b203-ffba5d9dc946",
    "name": "Le Manoir Saint-Michel",
    "logo": "false",
    "phone": "02 96 41 48 87",
    "website": "https://www.manoirstmichel.com",
    "address": "38 Rue De La Carquois",
    "city": "Fréhel",
    "postal_code": "22240",
    "country": "France",
    "category": "Tourisme",
    "members_benefits": "Charge gratuite pour votre véhicule Tesla Un apéritif pour deux personnes offert dans le parc ou la verrière avec vue sur mer.",
    "benefits_conditions": "Présentation de la carte de membre",
    "latitude": 48.641544,
    "longitude": -2.3912348
  },
  {
    "id": "685ce1f8-747a-4d06-b330-376bd23145bf",
    "name": "Hotel Restaurant Le Belvédère",
    "logo": "false",
    "phone": "07 85 69 44 39",
    "website": "https://www.lebelvedere-lauzerte.com",
    "address": "",
    "city": "Lauzerte",
    "postal_code": "82110",
    "country": "France",
    "category": "Tourisme",
    "members_benefits": "15% de remise sur le SPA (soins et massages)",
    "benefits_conditions": "Présentation de la carte de membre",
    "latitude": 44.2565123,
    "longitude": 1.1383233
  },
  {
    "id": "8fe783c3-c1b3-48c3-a38c-1c9134ea8985",
    "name": "La Grande Evasion",
    "logo": "true",
    "phone": "0474878203",
    "website": "https://www.la-grande-evasion.com/vienne/",
    "address": "12 Cours de Verdun",
    "city": "Vienne",
    "postal_code": "38200",
    "country": "France",
    "category": "Tourisme",
    "members_benefits": "20 % de réduction hors vacances scolaires, hors réservation Pro, et hors achats bons cadeaux sur présentation d'une carte de membre.\nLa réservation se fera sur le site internet (https://www.la-grande-evasion.com/vienne), seul l acompte se fera en ligne, le tarif réduit se fera au moment du règlement sur place.",
    "benefits_conditions": "Présentation de la carte de membre",
    "latitude": 45.519672,
    "longitude": 4.8702599
  },
  {
    "id": "d5ffba9a-40d5-4e9f-8a08-b3631b209d9b",
    "name": "ESERV-NET",
    "logo": "true",
    "phone": "06 89 86 97 57",
    "website": "https://www.facebook.com/eservnet/?ref=page_internal",
    "address": "9 Bis Allée John Ropper",
    "city": "Montbazon",
    "postal_code": "37250",
    "country": "France",
    "category": "Detailing",
    "members_benefits": "20% de remise ou Traitement céramique des 4 jantes offert ou PPF sur optiques offert pour tout traitement céramique complet réalisé.",
    "benefits_conditions": "Présentation de la carte de membre",
    "latitude": 47.2773968,
    "longitude": 0.7098771
  },
  {
    "id": "82fb17e2-a417-4a2f-b2a9-308bc45d1e77",
    "name": "ETS Maunier",
    "logo": "true",
    "phone": "06 88 71 94 71",
    "website": "https://www.ets-maunier-33.fr",
    "address": "29 rue de lignan",
    "city": "Fargues Saint Hilaire",
    "postal_code": "33370",
    "country": "France",
    "category": "Recharge",
    "members_benefits": "15% de remise sur la fourniture et pose de bornes ou prises renforcées",
    "benefits_conditions": "Présentation de la carte de membre",
    "latitude": 44.8230228,
    "longitude": -0.4440284
  },
  {
    "id": "8fa3a02a-ff4c-4591-a3e5-5e6336eecb28",
    "name": "Karting de Chartres",
    "logo": "true",
    "phone": "02 37 28 70 07",
    "website": "https://www.kartingdechartres.fr",
    "address": "8 Le Bois des Poteries",
    "city": "Chartres",
    "postal_code": "28000",
    "country": "France",
    "category": "Tourisme",
    "members_benefits": "5% de réduction et recharge gratuite",
    "benefits_conditions": "Présentation de la carte de membre",
    "latitude": 48.4438601,
    "longitude": 1.4881434
  },
  {
    "id": "2350d594-c713-4583-a564-88287744b5d5",
    "name": "Com’on Gyro Caen 4",
    "logo": "true",
    "phone": "06 82 25 19 38",
    "website": "https://www.comongyro.fr",
    "address": "57 Rue De Bras",
    "city": "Caen",
    "postal_code": "14000",
    "country": "France",
    "category": "Tourisme",
    "members_benefits": "10 % de remise sur toutes les activités proposées",
    "benefits_conditions": "Présentation de la carte de membre",
    "latitude": 49.1813531,
    "longitude": -0.3672789
  },
  {
    "id": "31f726e7-390e-4fb7-913a-48ef6cefc59c",
    "name": "Imaginair",
    "logo": "true",
    "phone": "06 34 07 64 28",
    "website": "http://www.image-in-air.fr",
    "address": "Place de l église",
    "city": "Berrias-et-Casteljau",
    "postal_code": "7460",
    "country": "France",
    "category": "Tourisme",
    "members_benefits": "10% de remise sur les baptême de l'air",
    "benefits_conditions": "Présentation de la carte de membre",
    "latitude": 44.3993299,
    "longitude": 4.2128409
  },
  {
    "id": "01a94ba6-8f44-4b04-93cc-6f69b79c3541",
    "name": "Cover Custom",
    "logo": "true",
    "phone": "06 72 46 78 83",
    "website": "https://www.cover-custom.fr/",
    "address": "88 Route de Gerzat",
    "city": "Cébazat",
    "postal_code": "63118",
    "country": "France",
    "category": "Detailing",
    "members_benefits": "10 % de remise sur toutes les prestations (vitres teintées, covering total, personnalisation Tesla ….)",
    "benefits_conditions": "Présentation de la carte de membre",
    "latitude": 45.827206,
    "longitude": 3.1223454
  },
  {
    "id": "e048d5d3-ebb9-4426-a43c-a2094e65e00b",
    "name": "Only Kart",
    "logo": "true",
    "phone": "06 18 40 24 50",
    "website": "https://onlykart.com",
    "address": "195 Rue de l industrie",
    "city": "Dagneux",
    "postal_code": "1120",
    "country": "France",
    "category": "Tourisme",
    "members_benefits": "Session à 20 euro au lieu de 25\nFormule Grand Prix (minimum 7 personnes) , en cadeau la carte de membre et la cagoule (obligatoire protocole covid)\npossibilité de privatiser l'établissement\nréduction pour le membre et ses accompagnants.",
    "benefits_conditions": "Présentation de la carte de membre",
    "latitude": 45.8541,
    "longitude": 5.07498
  },
  {
    "id": "d311938f-7a2d-4864-b9e9-99e06c75f934",
    "name": "Auto Wash 44",
    "logo": "false",
    "phone": "",
    "website": "www.autowash44.com",
    "address": "Rue des Chaintres",
    "city": "Indre",
    "postal_code": "44610",
    "country": "France",
    "category": "Detailing",
    "members_benefits": "10 % de remise sur toutes les prestations",
    "benefits_conditions": "Présentation de la carte de membre",
    "latitude": 47.1975077,
    "longitude": -1.6592547
  },
  {
    "id": "88d0cc8f-428b-44f6-8a89-4e84f57aad14",
    "name": "Bio Net Cars",
    "logo": "true",
    "phone": "0630182274",
    "website": "https://www.bionetcars.fr",
    "address": "11 Rue du 8 mai",
    "city": "Gencay",
    "postal_code": "86160",
    "country": "France",
    "category": "Detailing",
    "members_benefits": "15 % de remise sur toutes les prestations detailing polissage et pose de traitement céramique.",
    "benefits_conditions": "Présentation de la carte de membre",
    "latitude": 46.3735187,
    "longitude": 0.404331
  },
  {
    "id": "8ed2bf5b-10c7-4f15-b4d3-62dbaae3c8e3",
    "name": "Jimmy Detailing",
    "logo": "true",
    "phone": "06 60 82 23 51",
    "website": "https://www.facebook.com/Jimmy-detailing-car-105528604589711/",
    "address": "2 Impasse Richard Wagner",
    "city": "Marmande",
    "postal_code": "47200",
    "country": "France",
    "category": "Detailing",
    "members_benefits": "10 % de réduction sur traitement céramique",
    "benefits_conditions": "Présentation de la carte de membre",
    "latitude": 44.5064293,
    "longitude": 0.1669017
  },
  {
    "id": "122f6c53-9644-4c87-bd26-f1bce55fff8c",
    "name": "APRS Detailing",
    "logo": "true",
    "phone": "07 88 31 01 23",
    "website": "https://www.aprs-detailing.com/",
    "address": "9 rue de l'industrie",
    "city": "Anglet",
    "postal_code": "64600",
    "country": "France",
    "category": "Detailing",
    "members_benefits": "●        Avantage 1 -10 % de remise sur les prestations de lavage intérieur/extérieur premium en centre ou à domicile (sous validation de faisabilité, à valider avec chacun des prospects pour les prestations à domicile) \n●        Avantage 2 - 15 % de réduction sur les préparations à la vente (car staging) au centre de BIdard exclusivement\n●        Avantage 3 - 15 % de réduction sur les poses de céramique carrosserie (5 ou 7 ans selon l' option retenue , jantes (1 à 2 ans) , au centre de Bidart exclusivement \n●        Avantage 4 - 15 % sur les poses de cires (6 mois ou 1 an selon l' option retenue) au centre de Bidart exclusivement\n●        Avantage 5 - 10 % de réduction sur l' entretien des selleries cuirs (produits spécifiques au cuir végétal Tesla)\n●        Avantage 6 - d' autres prestations possibles sur demandes : réparations jantes, débosselage sans peinture, rénovation cuir, peinture ….",
    "benefits_conditions": "Présentation de la carte de membre",
    "latitude": 43.4958051,
    "longitude": -1.4969054
  },
  {
    "id": "ed23143d-7025-4ae2-8d72-3700b50ab03b",
    "name": "Côté Thalasso Banyuls sur Mer",
    "logo": "false",
    "phone": "06 12 90 25 33",
    "website": "www.cote-thalasso.fr",
    "address": "avenue de la Côte Vermeille",
    "city": "Banyuls sur Mer",
    "postal_code": "66650",
    "country": "France",
    "category": "Tourisme",
    "members_benefits": "-25% sur les Cures, Escales et Séjours liberté\n -20% sur les Cures externes, journées, 1⁄2 journées et soins à la carte\n -10% sur l’Hébergement avec accès à l’Espace Forme Marin",
    "benefits_conditions": "Présentation de la carte de membre\nPar téléphone, par mail ou sur notre site : www.cote-thalasso.fr\nCôté Thalasso Île de Ré au 05.46.29.10.00 ou reservations@cote-thalasso.fr\nCôté Thalasso Banyuls sur Mer au 04.68.98.36.66 ou reservations@cote-thalasso.fr",
    "latitude": 42.4805102,
    "longitude": 3.1380803
  },
  {
    "id": "78379375-86e3-4f6c-a513-60e6e958fe07",
    "name": "Urban kart’in",
    "logo": "true",
    "phone": "0450036678",
    "website": "https://www.urbankart-in.com",
    "address": "389 Rue Ingénieur Sansoube",
    "city": "La Roche Sur Foron",
    "postal_code": "74800",
    "country": "France",
    "category": "Tourisme",
    "members_benefits": "● 1 session 20 euros TTC au lieu de 23 euros\n● 2 sessions 40 euros TTC au lieu de 43 euros\n● Grand prix loisirs (3 sessions de 10 min essai/qualification/finale + remise d'un\ntrophée au 3 premiers sur podium) 60 euros au lieu de 65 euros\n● Grand prix pro (3 sessions de 10 à 12 min, essai/qualifications 10 min, finale 12 min,\nremise d'un trophée aux 3 premiers sur podium) 70 euros au lieu de 75 euros.",
    "benefits_conditions": "Présentation de la carte de membre",
    "latitude": 46.0761848,
    "longitude": 6.3011258
  },
  {
    "id": "bf497da3-6d85-4866-b5a5-4fc686250e8e",
    "name": "Chargemap",
    "logo": "true",
    "phone": "+33642875914",
    "website": "https://fr.chargemap.com",
    "address": "7 Allée Cérès",
    "city": "Strasbourg",
    "postal_code": "67200",
    "country": "France",
    "category": "Recharge",
    "members_benefits": "25 % de réduction sur la carte chargemap, un code unique sera attribué aux adhérents",
    "benefits_conditions": "utilisation du code sur le site Chargemap",
    "latitude": 48.5944236,
    "longitude": 7.7141896
  },
  {
    "id": "c30fec69-f1e5-403e-b4c2-ec8889b38b1e",
    "name": "CGC Drive",
    "logo": "false",
    "phone": "",
    "website": "https://cgcdrive.com",
    "address": "570 Chemin De La Bosque De Madeleine",
    "city": "Aix En Provence",
    "postal_code": "13100",
    "country": "France",
    "category": "Transfert",
    "members_benefits": "Aix en Provence / Paris  550€TTC  après remise : 495€TTC\n●        Paris / Cannes 700€TTC après remise : 630€TTC\n●        Aix en Provence / Cannes 170€TTC après remise : 150€TTC\n●        Aix en Provence / Monaco 220€TTC  après remise : 195€TTC\n●        Paris / Bordeaux 500€TTC  après remise : 450€TTC\n●        Bordeaux / Monaco 600€TTC après remise : 540€TTC",
    "benefits_conditions": "Présentation de la carte de membre",
    "latitude": 43.5719218,
    "longitude": 5.4368542
  },
  {
    "id": "bbd14ba3-48da-4c57-a0ce-9cd417a12337",
    "name": "Regis Papirer",
    "logo": "true",
    "phone": "0687086546",
    "website": "https://rpapirer.wordpress.com",
    "address": "19 rue Boulogne",
    "city": "Mulhouse",
    "postal_code": "68200",
    "country": "France",
    "category": "Pilotage",
    "members_benefits": "Thalasseo consent des tarifs préférentiels sur les séjours de bien être à chaque ayant droit ainsi qu’à leurs\naccompagnants (es).\nLes réductions sont exclusivement applicables sur la base des forfaits de thalassothérapie, Spa ou Thermal Spa,\navec ou sans hébergement, mais également sur certaines prestations des soins à la carte et séjours sans soins\nsauf sur les cartes cadeau et les produits Thalazur.\nLes réductions ne sont en aucun cas cumulables avec d’autres offres promotionnelles.\nLes réductions sont applicables sur précision du code suivant remis par Thalasseo :\n\nCSETHTOCF65\nLes demandes d’informations complémentaires peuvent se faire du lundi au samedi de 9h à 19h :\nPar email : resa.cse@thalasseo.com\nPar téléphone : 01 76 49 15 15",
    "benefits_conditions": "Présentation de la carte de membre",
    "latitude": 47.7691812,
    "longitude": 7.3307774
  },
  {
    "id": "022ad430-e776-434c-a46e-7a58f5855933",
    "name": "Autoclean Vap - Carmatic - Dogmatic",
    "logo": "false",
    "phone": "06 27 04 01 22",
    "website": "https://www.autocleanvap.fr/autoclean-vap/",
    "address": "9001 Route De La Sapinière",
    "city": "Laxou",
    "postal_code": "54520",
    "country": "France",
    "category": "Detailing",
    "members_benefits": "●        Traitements céramique et film ppf : une mallette gtechniq offerte\n●        Car Matic et Dog Matic: Avec l'application mobile car matic, achetez des jetons virtuel et obtenez une remise en fonction des paliers d'achat. 20 jetons achetés = 5 % en plus soit 1 jeton... 30 jetons achetés = 10%",
    "benefits_conditions": "Présentation de la carte de membre",
    "latitude": 48.6848709,
    "longitude": 6.1522232
  },
  {
    "id": "16354ffd-6ae0-4552-b132-448ebda141bf",
    "name": "Lite.eco",
    "logo": "true",
    "phone": "06 26 84 23 99",
    "website": "https://www.lite.eco",
    "address": "3 Boulevard Bertier",
    "city": "Paris",
    "postal_code": "75017",
    "country": "France",
    "category": "Economie d'énergie",
    "members_benefits": "●        tarif spécial à 14 € TTC pour le bilan d'optimisation au lieu de 19 € TTC pour les adhérents\n●        tarif spécial à 39 € TTC / an pour l'abonnement Lite Plus au lieu des 49 € TTC / an pour les adhérents\n●        dotation : 5 bilans d'optimisation tarifaire offerts pour les loteries du club",
    "benefits_conditions": "Présentation de la carte de membre",
    "latitude": 48.8588897,
    "longitude": 2.320041
  },
  {
    "id": "ba3acf4f-d1f6-4ffb-b5d6-1707e33e3ec1",
    "name": "Electric Conduite",
    "logo": "false",
    "phone": "",
    "website": "https://electric-conduite.com/avantages/",
    "address": "9 Chemin De Pierres Mortes",
    "city": "Tresserve",
    "postal_code": "73100",
    "country": "France",
    "category": "Auto-école",
    "members_benefits": "●        Formation pratique 45 euro  la leçon au lieu de 50 euro sur présentation de la carte du club",
    "benefits_conditions": "Présentation de la carte de membre",
    "latitude": 45.6731168,
    "longitude": 5.8955448
  },
  {
    "id": "2cb4503b-5129-4a7e-b82d-1c2527dca0ff",
    "name": "SC Detailing",
    "logo": "true",
    "phone": "06 62 02 34 00",
    "website": "https://sc-detailing.fr",
    "address": "297 Rue Du Docteur Calmette",
    "city": "La Farlède",
    "postal_code": "83210",
    "country": "France",
    "category": "Detailing",
    "members_benefits": "●        10% de réduction  sur les services (lavage, lustrage, pose de protection céramique….)\n●        15% de réduction sur l’achat de produits GYEON",
    "benefits_conditions": "Présentation de la carte de membre",
    "latitude": 43.1502995,
    "longitude": 6.0408339
  },
  {
    "id": "93c12770-5987-4a7f-8976-e569335ac21f",
    "name": "Le Centre Du Detailing",
    "logo": "false",
    "phone": "06 09 16 42 75",
    "website": "",
    "address": "26 Avenue Des Frères Lumières Bat K",
    "city": "Trappes",
    "postal_code": "78190",
    "country": "France",
    "category": "Detailing",
    "members_benefits": "●        10 % de remise sur car-stagging, réparation cuir, nettoyage ..\n●        pour toutes prestations de polissage et céramique : un atelier de 4h pour apprendre à nettoyer sa voiture offert valeur 160 euro",
    "benefits_conditions": "Présentation de la carte de membre",
    "latitude": 48.7760957,
    "longitude": 1.9988356
  },
  {
    "id": "4efbd076-dbda-470d-aa36-70400d99e7e2",
    "name": "Power Pneumatic",
    "logo": "false",
    "phone": "",
    "website": "https://www.facebook.com/powerpneumatic68/",
    "address": "55 Route de Colmar",
    "city": "Ruelisheim",
    "postal_code": "68270",
    "country": "France",
    "category": "Pneumatique",
    "members_benefits": "●        12 euros TTC Montage et équilibrage par roue quelque soit la taille sur présentation de la carte",
    "benefits_conditions": "Présentation de la carte de membre",
    "latitude": 47.8281831,
    "longitude": 7.3395097
  },
  {
    "id": "28ce21c4-1c8a-40dc-93b7-2cc95f2f6716",
    "name": "QR Detailing",
    "logo": "true",
    "phone": "06 32 63 14 34",
    "website": "https://qrdetailing.com",
    "address": "11 Rue Henri Rousseau",
    "city": "Loiron-Ruillé",
    "postal_code": "53320",
    "country": "France",
    "category": "Detailing",
    "members_benefits": "●        10% sur toutes les prestations sur présentation de la carte",
    "benefits_conditions": "Présentation de la carte de membre",
    "latitude": 48.0637725,
    "longitude": -0.9373358
  },
  {
    "id": "86d1595f-48b5-448e-935f-7628f5c905aa",
    "name": "Dekra Béziers",
    "logo": "false",
    "phone": "04 67 76 99 00",
    "website": "https://www.dekra-norisko.fr/storelocator/herault,3beziers,34500",
    "address": "Rue Jean Prevost",
    "city": "Béziers",
    "postal_code": "34500",
    "country": "France",
    "category": "Contrôle technique",
    "members_benefits": "●        Contrôle technique à 66 euros au lieu de 74 euros et contre visite offerte, sur présentation de la carte du club.",
    "benefits_conditions": "Présentation de la carte de membre",
    "latitude": 43.3426674,
    "longitude": 3.2564907
  },
  {
    "id": "71d268e3-5b91-4161-8c62-6684e23070da",
    "name": "SB Autocleaner",
    "logo": "true",
    "phone": "0772212155",
    "website": "https://sbautocleaner.auto-gestion.net",
    "address": "26 Rue Des Moulissards",
    "city": "Talant",
    "postal_code": "21240",
    "country": "France",
    "category": "Detailing",
    "members_benefits": "●        10 % de réduction sur toutes les prestations traitement céramique, cire au graphène sur la carrosserie.",
    "benefits_conditions": "Présentation de la carte de membre",
    "latitude": 47.343492,
    "longitude": 4.994487
  },
  {
    "id": "1c3079e4-0316-4950-aa00-93af4bffb8c3",
    "name": "Re'belle Concept",
    "logo": "true",
    "phone": "06 88 27 32 22",
    "website": "https://www.rebelleconcept.fr",
    "address": "164 bis Chem. de payssierou",
    "city": "Maraussan",
    "postal_code": "34370",
    "country": "France",
    "category": "Detailing",
    "members_benefits": "●        5 à 8 % de remise sur les produits Alchimy\n●        Une céramique vitre offerte, pour une céramique complète réalisée (valeur de la réduction 150 euros)",
    "benefits_conditions": "Présentation de la carte de membre",
    "latitude": 43.3696,
    "longitude": 3.15399
  },
  {
    "id": "bdeb45d8-5dfe-4caa-9ff0-7e88ec61e7d3",
    "name": "JR COVERING",
    "logo": "false",
    "phone": "06 73 93 48 01",
    "website": "https://www.jrcovering.fr",
    "address": "8 Place De L’Echut",
    "city": "Colomiers",
    "postal_code": "31770",
    "country": "France",
    "category": "Detailing",
    "members_benefits": "●        10 % de remise sur toutes les prestations, sur présentation de la carte.",
    "benefits_conditions": "Présentation de la carte de membre",
    "latitude": 43.5983525,
    "longitude": 1.2959891
  },
  {
    "id": "4e0c5d4b-8343-40d6-b72f-cf5cd55ec4dc",
    "name": "Courant Naturel",
    "logo": "false",
    "phone": "06 20 86 15 96",
    "website": "https://www.courantnaturel.com",
    "address": "56 impasse Gustave Eiffel, ZA de la Prade",
    "city": "Soual",
    "postal_code": "81580",
    "country": "France",
    "category": "Recharge",
    "members_benefits": "●        Offre exclusive TOCF : installation clef en main avec des modules Maxeon 3 + onduleur Fronlux Gen 24. \nEn option installation du wattpilot pour gérer la charge du véhicule électrique.",
    "benefits_conditions": "Présentation de la carte de membre",
    "latitude": 43.5545042,
    "longitude": 2.1148775
  },
  {
    "id": "2498e306-cb1f-49d0-ba22-3ca6e975e1ac",
    "name": "SPOORS",
    "logo": "false",
    "phone": "",
    "website": "https://spoors.fr",
    "address": "21 Place De La République",
    "city": "Paris",
    "postal_code": "75003",
    "country": "France",
    "category": "Accessoires auto",
    "members_benefits": "un code de réduction de 25% sur les produits spoors vendus sur le site Amazon.fr, à\ndestination du public, valable pendant 3 mois à compter de la signature de la\nprésente convention,\n● à l'expiration de la période susmentionnée pour 3 mois supplémentaires, un code de\nréduction de 25% sur les produits spoors vendus sur le site Amazon.fr, à destination\nuniquement des membres adhérents de l’association Tesla Owners Club France et,\n● 500 kits incluant une étiquette avec un flyer explicatif Spoors,",
    "benefits_conditions": "Présentation de la carte de membre",
    "latitude": 48.8676757,
    "longitude": 2.3623292
  },
  {
    "id": "a9c5ffe0-3d30-4626-a1f1-56b647fc8b84",
    "name": "TIC TAC Location",
    "logo": "false",
    "phone": "",
    "website": "",
    "address": "17 Chemin de Corn",
    "city": "Galcon",
    "postal_code": "33133",
    "country": "France",
    "category": "Location de voiture",
    "members_benefits": "10 % de remise sur le premier loyer majoré soit une économie de 400 € environ.",
    "benefits_conditions": "Présentation de la carte de membre"
  },
  {
    "id": "c1e0da0f-107b-4c87-9756-f95e58681725",
    "name": "Watt'LS",
    "logo": "true",
    "phone": "0388681767",
    "website": "https://www.wattls.fr",
    "address": "7A rue de la fontaine",
    "city": "KIENHEIM",
    "postal_code": "67270",
    "country": "France",
    "category": "Recharge",
    "members_benefits": "10% de remise sur la prestation (fournitures et pose) de bornes de charge sur validation d'affiliation Tesla Owners Club France (valable uniquement pour clients particuliers)",
    "benefits_conditions": "Présentation de la carte de membre",
    "latitude": 48.6874851,
    "longitude": 7.5783909
  },
  {
    "id": "51b49084-3609-4c2a-ac83-1df993d94ee0",
    "name": "South Luxury Driver",
    "logo": "false",
    "phone": "",
    "website": "https://www.facebook.com/people/South-Luxury-Driver/100063691384548/",
    "address": "9 allée du froment",
    "city": "Vitrolles",
    "postal_code": "13127",
    "country": "France",
    "category": "Transfert",
    "members_benefits": "Marignane aéroport & aix TGV vers Signes à 110€ au lieu de 130€\nMarseille Saint Charles vers Signes à 80€ au lieu de 90€\nGare de Toulon vers Signes 60€ au lieu de 80€\nGare de TGV d'Aix en pce 110€ au lieu de 130€",
    "benefits_conditions": "Présentation de la carte de membre",
    "latitude": 43.4236253,
    "longitude": 5.2803986
  },
  {
    "id": "efdaa544-5af2-416b-9dd1-288526f98dbd",
    "name": "Urban COD",
    "logo": "true",
    "phone": "+33607590001",
    "website": "https://www.urban-cod.com",
    "address": "1 avenue Auguste Vérola",
    "city": "NICE",
    "postal_code": "06200",
    "country": "France",
    "category": "Location voiture",
    "members_benefits": "○ Offre de contrat de location-gérance d’une durée de 6 mois minimum et une\nmajoration de 100€ du premier loyer\n○ Bon de réduction de 10% pour les courses réservées sur la plateforme\nlesnouveauxchauffeurs.com",
    "benefits_conditions": "Présentation de la carte de membre",
    "latitude": 43.7108484,
    "longitude": 7.1962233
  },
  {
    "id": "5f4a4712-cc55-45f4-85dc-52ffb4561fb7",
    "name": "MY TESLA MATE",
    "logo": "true",
    "phone": "0781991930",
    "website": "https://www.myteslamate.com",
    "address": "32 Avenue Victor Hugo",
    "city": "Champs Sur Marne",
    "postal_code": "77420",
    "country": "France",
    "category": "Recharge",
    "members_benefits": "- 20% pendant les 3 premiers mois sur l’abonnement",
    "benefits_conditions": "Code promo : TeslaOwnerClubFrance",
    "latitude": 48.8504867,
    "longitude": 2.6040358
  },
  {
    "id": "2610e430-c3fe-481b-b1a2-7b321e5ad6c0",
    "name": "Chateau de Reignac",
    "logo": "true",
    "phone": "05 56 20 41 05",
    "website": "https://reignac.com",
    "address": "SARLChateau de Reignac, 38 Chemin de Régnac",
    "city": "Saint Loubès",
    "postal_code": "33450",
    "country": "France",
    "category": "Tourisme",
    "members_benefits": "5% de remise sur les achats à la boutique et recharge gratuite sur présentation de la carte membre Tesla Owners France.",
    "benefits_conditions": "Présentation de la carte de membre",
    "latitude": 44.9164747,
    "longitude": -0.4269087
  },
  {
    "id": "688030c1-0a15-45e5-96b6-be12ad2d5f50",
    "name": "DP Protint",
    "logo": "true",
    "phone": "06 99 83 19 60",
    "website": "https://www.dpprotint.fr",
    "address": "Zac Croix Blandin, 9 Rue du Loup",
    "city": "Cernay Les Reims",
    "postal_code": "51420",
    "country": "France",
    "category": "Detailing",
    "members_benefits": "Avantage 1- 15% de remise sur les profuits gamme céramic performance (film solaire)\nAvantage 2 - 10% de remise sur les produits gamme Galxie (véhicule complet)\nAvantage 3 - 10% de remise sur traitement céramique monocouche 7H+ \nAvantage 4 - 15% d e remise sur traitement céramique 3 couches 9/9/8 \nAvantage 5- 10% sur les produits d'entretien (alchimy 7)\nAvantage 6 - véhicule decourtoisie en pret",
    "benefits_conditions": "Présentation de la carte de membre",
    "latitude": 49.2641778,
    "longitude": 4.1040521
  },
  {
    "id": "0416d37b-b4dd-4b53-a6c0-7def0e128e2b",
    "name": "Trottstore ELEQTRON",
    "logo": "true",
    "phone": "06 42 25 36 07",
    "website": "https://www.eleqtron.fr",
    "address": "37 b Rue des 3 Rois",
    "city": "Mulhouse",
    "postal_code": "68100",
    "country": "France",
    "category": "Transfert",
    "members_benefits": "Avantage 1- 6 % sur une trottinette électrique en accessoires",
    "benefits_conditions": "Présentation de la carte de membre",
    "latitude": 47.7421497,
    "longitude": 7.3431347
  },
  {
    "id": "18cfa885-f269-47de-8e4a-ab149eae48bd",
    "name": "EXPERT DETAILING 34",
    "logo": "true",
    "phone": "06606810 50",
    "website": "https://www.expertdetailing34.com",
    "address": "2 rue Louis Blériot lot n8",
    "city": "Saint Jean de Védas",
    "postal_code": "34430",
    "country": "France",
    "category": "Detailing",
    "members_benefits": "Avantage 1 - Sacoche kit entretien offert pour toutes prestations",
    "benefits_conditions": "Présentation de la carte de membre",
    "latitude": 43.5751791,
    "longitude": 3.8264197
  },
  {
    "id": "4aa75077-14ab-49c8-a8d5-d98355984948",
    "name": "Star glace",
    "logo": "true",
    "phone": "06 37 37 18 40",
    "website": "https://star-glace.com",
    "address": "3 Rue Benjamin Franklin ZA Triasis",
    "city": "Launaguet",
    "postal_code": "31140",
    "country": "France",
    "category": "Detailing",
    "members_benefits": "Avantage 1 - 10% de réduction sur les vitres teintées",
    "benefits_conditions": "Présentation de la carte de membre",
    "latitude": 43.6742484,
    "longitude": 1.4568622
  },
  {
    "id": "6ec2b6d8-4e78-4d39-bda5-c92a6280c2f6",
    "name": "Famille Gouze",
    "logo": "true",
    "phone": "0683236075",
    "website": "http://www.vignobles-gouze.com/",
    "address": "3 impasse de Bayard",
    "city": "Montagne",
    "postal_code": "33570",
    "country": "France",
    "category": "Tourisme",
    "members_benefits": "-10% sur tous les vins sur présentation de la carte de membre. Saint Émilion grand cru",
    "benefits_conditions": "Présentation de sa carte d'adherent",
    "latitude": 44.9297026,
    "longitude": -0.1034537
  },
  {
    "id": "7e2e5cd8-56b9-4628-88c8-b6683e4a3a8b",
    "name": "Revolte SAS",
    "logo": "true",
    "phone": "0663339796",
    "website": "https://revolte.club",
    "address": "3 rue du nouveau Bele",
    "city": "Carquefou",
    "postal_code": "44470",
    "country": "France",
    "category": "Garage",
    "members_benefits": "réduction de 5% sur les interventions chez Revolte, avec les techniciens mobiles ou dans nos ateliers.\n\nPossibilité d'une réduction supplémentaire sur certaines pannes précises.",
    "benefits_conditions": "Présentation carte membre (photo par email)",
    "latitude": 47.2693456,
    "longitude": -1.4996939
  },
  {
    "id": "d286b86f-c717-4ddf-9299-fa700c38d345",
    "name": "Carrosserie Brachet",
    "logo": "true",
    "phone": "0509334262",
    "website": "",
    "address": "9 bis rue joseph cugnot",
    "city": "Merignac",
    "postal_code": "33700",
    "country": "France",
    "category": "Garage",
    "members_benefits": "Remise de 20% de reduction sur la main d'oeuvre sur facture hors assurance.\n\nFranchise offerte sur les bris de glace",
    "benefits_conditions": "Présentation carte membre (photo par email)",
    "latitude": 44.8543459,
    "longitude": -0.6674668
  },
  {
    "id": "a0d37258-8287-4d58-a80e-c1bfe5be577e",
    "name": "Xpel",
    "logo": "true",
    "phone": "+33699418911",
    "website": "https://xpel.fr/",
    "address": "Henri Blomjousstraat 10",
    "city": "Tilburg",
    "postal_code": "5048 AG",
    "country": "Netherland",
    "category": "Detailing",
    "members_benefits": "• 10% de remise sur la pose de film PPF dans le réseau des poseurs agréés Xpel. \n • 15% de remise sur la pose de film sur vitrage dans le réseau des poseurs agréés Xpel",
    "benefits_conditions": "Présentation de sa carte de membre"
  },
  {
    "id": "61e2b3c9-7217-4863-90f6-affc02fb7bb2",
    "name": "Mister EV",
    "logo": "true",
    "phone": "03 67 88 00 54",
    "website": "https://www.mister-ev.com",
    "address": "7 All. Cérès",
    "city": "Strasbourg",
    "postal_code": "67200",
    "country": "France",
    "category": "Accessoires auto",
    "members_benefits": "",
    "benefits_conditions": "",
    "latitude": 48.5944236,
    "longitude": 7.7141896
  },
  {
    "id": "4337b57f-d81f-4236-b52b-1f74b538988f",
    "name": "PISTA Detailing & PPF",
    "logo": "true",
    "phone": "01 64 17 88 08",
    "website": "https://www.pista.fr",
    "address": "30 Rue des Quilles",
    "city": "Chessy",
    "postal_code": "77700",
    "country": "France",
    "category": "Detailing",
    "members_benefits": "Traitement céramique vitres offert (valeur 150 euros) pour un forfait TESLA Traitement céramique auto-cicatrisant ou un PPF complet ou Face Avant.",
    "benefits_conditions": "Présenter carte",
    "latitude": 48.8784523,
    "longitude": 2.7744492
  },
  {
    "id": "23b48b64-92e2-4a96-8984-a9f5c7169d29",
    "name": "Riviera Boat Club",
    "logo": "true",
    "phone": "+33 6 50 06 58 72",
    "website": "www.Rivieraboatclub.com",
    "address": "59 route de Valbonne",
    "city": "Le Cannet",
    "postal_code": "06110",
    "country": "France",
    "category": "Tourisme",
    "members_benefits": "-10% sur les location de bateau de moins de 9m",
    "benefits_conditions": "Carte membre",
    "latitude": 43.5783978,
    "longitude": 7.0170511
  },
  {
    "id": "647ebafd-94cf-458b-a8e3-6188da49d4c1",
    "name": "Laguzou Pneus",
    "logo": "true",
    "phone": "+33468252588",
    "website": "carcassonne-pneus.eurotyre.fr",
    "address": "20 AVENUE FRANKLIN ROOSEVELT",
    "city": "CARCASSONNE",
    "postal_code": "11000",
    "country": "France",
    "category": "Pneumatique",
    "members_benefits": "20% sur les forfaits et main d'oeuvre",
    "benefits_conditions": "",
    "latitude": 43.2184235,
    "longitude": 2.3440908
  },
  {
    "id": "b3fdf4bb-3ffd-4fb2-80e2-6ef0bd65e527",
    "name": "BeautiCar",
    "logo": "true",
    "phone": "0678885604",
    "website": "www.beauticar.fr",
    "address": "ZI La Bouriette Allée Jean Lambert",
    "city": "CARCASSONNE",
    "postal_code": "11000",
    "country": "France",
    "category": "Detailing",
    "members_benefits": "10% sur tous les types de prestations",
    "benefits_conditions": "",
    "latitude": 43.2130358,
    "longitude": 2.3491069
  },
  {
    "id": "dbee0125-1c72-4ab6-991f-009284ffbd0e",
    "name": "Mc Donald's Carcassonne",
    "logo": "true",
    "phone": "0627568533",
    "website": "https://www.mcdonalds.fr/restaurants/mcdonalds-carcassonne-salvaza/754",
    "address": "Zone commerciale Salvaza,",
    "city": "CARCASSONNE",
    "postal_code": "11000",
    "country": "France",
    "category": "Tourisme",
    "members_benefits": "1 BOISSON CHAUDE OU FROIDE OFFERT",
    "benefits_conditions": "présentation de la carte membre",
    "latitude": 43.2130358,
    "longitude": 2.3491069
  },
  {
    "id": "9a40bf37-784e-4cf9-a445-078582d4b3dc",
    "name": "Obsession Auto Detailing",
    "logo": "true",
    "phone": "0601266484",
    "website": "https://www.obsessionautodetailing.fr",
    "address": "61 chemin des figuiers",
    "city": "Morières les Avignon",
    "postal_code": "84310",
    "country": "France",
    "category": "Detailing",
    "members_benefits": "Réduction de 10% sur les prestations",
    "benefits_conditions": "Présentation de la carte de membre",
    "latitude": 43.9353185,
    "longitude": 4.9005884
  },
  {
    "id": "0812e91e-8f45-4eab-9cb6-0ef35fc2416c",
    "name": "Alex Convoyage",
    "logo": "false",
    "phone": "0787191517",
    "website": "",
    "address": "43 rue des marronniers",
    "city": "Vic le Comte",
    "postal_code": "63270",
    "country": "France",
    "category": "Convoyage de Véhicule",
    "members_benefits": "15% sur les convoyages.\nLavage offert (pour plus de 400km).\nExplication véhicule 30 min (Prise en main)",
    "benefits_conditions": "Présentation carte",
    "latitude": 45.6369712,
    "longitude": 3.2177067
  },
  {
    "id": "16a7da81-ef02-4887-bf76-b4b0659f49e6",
    "name": "Express Pneu",
    "logo": "true",
    "phone": "749229444",
    "website": "https://www.expresspneu.com",
    "address": "6 rue capitaine jean croisa",
    "city": "Marseille",
    "postal_code": "13009",
    "country": "France",
    "category": "Garage",
    "members_benefits": "15€ de remise net pour l'achat et la pose de deux pneus\n-10% de remise net sur les phases d'entretien (vérification et changement liquide de frein / changement filtre à air d'habitacle )",
    "benefits_conditions": "",
    "latitude": 43.2369963,
    "longitude": 5.4016326
  },
  {
    "id": "fa0ec365-591d-4dfd-afa5-dd6a901bfc33",
    "name": "Visipub",
    "logo": "true",
    "phone": "0676125284",
    "website": "https://www.visipub-lamballe.fr",
    "address": "52 rue d'Armor",
    "city": "",
    "postal_code": "22400",
    "country": "France",
    "category": "Detailing",
    "members_benefits": "- 10% sur prestation",
    "benefits_conditions": "",
    "latitude": 48.469444,
    "longitude": -2.543275
  },
  {
    "id": "1278ee6b-6f02-43f3-9317-43ac418825c3",
    "name": "DETAILING PRESTIGE CERAMIC By SOSCLEANCAR",
    "logo": "true",
    "phone": "0611031003",
    "website": "",
    "address": "18 rue du docteur Schweitzer",
    "city": "VOEGTLINSHOFFEN",
    "postal_code": "68420",
    "country": "France",
    "category": "Detailing",
    "members_benefits": "- REMISE 30% SUR UNE PRESTATION COMPLÈTE CERAMIC/GRAPHÈNE  (POLISSAGE/LUSTRAGE + TRAITEMENT)\n- KIT D'ENTRETIEN D'UNE VALEUR DE 170€ OFFERT",
    "benefits_conditions": "Présentation carte",
    "latitude": 48.017035,
    "longitude": 7.2786923
  },
  {
    "id": "8f96d456-e826-4304-8be4-53ee554163ed",
    "name": "France Pare-brise",
    "logo": "true",
    "phone": "06 75 35 70 05",
    "website": "http://www.franceparebrise.fr/",
    "address": "ZA des Begnennes, Rue Pablo Picasso",
    "city": "Ennery",
    "postal_code": "57365",
    "country": "France",
    "category": "Garage",
    "members_benefits": "Pas d'offre à ce stade.",
    "benefits_conditions": "",
    "latitude": 49.2256191,
    "longitude": 6.2197994
  },
  {
    "id": "0b7dbdee-975e-42ed-857b-481c0b39ff0b",
    "name": "Hexis",
    "logo": "true",
    "phone": "+33 4 48 17 50 81",
    "website": "https://www.hexis-graphics.com/fr/",
    "address": "Z.I. Horizons Sud",
    "city": "Frontignan",
    "postal_code": "34110",
    "country": "France",
    "category": "Detailing",
    "members_benefits": "Proposer aux Adhérents de l’Association, un tarif unique pour la pose de films\nadhésifs dans son réseau d’installeurs certifiés :\no Prestation de pose de protection complète BODYFENCE : 3.800€ HT\no Prestation de pose d’une protection face avant BODYFENCE : 1.800 € HT\no Prestation de pose full covering extérieur (intérieurs de portes non inclus)\nHX20000 : 2.800€ HT\no Prestation de pose de films solaires gamme MAJESTIK (toit panoramique non\ncompris) : 350€ TTC",
    "benefits_conditions": "carte de membre",
    "latitude": 43.4489444,
    "longitude": 3.7530925
  },
  {
    "id": "d009e012-2d7b-46dc-83ca-74621a6981e3",
    "name": "Mobilité Club Académie",
    "logo": "true",
    "phone": "+33 (0)7 81 24 10 00",
    "website": "acprevention.fr",
    "address": "9 rue d’Artois",
    "city": "Paris",
    "postal_code": "75008",
    "country": "France",
    "category": "Stage de pilotage",
    "members_benefits": "Avantage pour les reponsables régionaux pour organiser des sessions de 10 à 12 personnes",
    "benefits_conditions": "",
    "latitude": 48.8725731,
    "longitude": 2.3082404
  },
  {
    "id": "de3fe034-85e6-4710-b2dd-861905d231ae",
    "name": "Everyprint S.L",
    "logo": "false",
    "phone": "09 78 45 08 14",
    "website": "https://www.mesplaques.fr/",
    "address": "Carrer de Zamora, 45",
    "city": "Barcelona",
    "postal_code": "08005",
    "country": "Espagne",
    "category": "Accessoires auto",
    "members_benefits": "-15% sur tous les produits du site https://www.mesplaques.fr/",
    "benefits_conditions": "",
    "latitude": 41.3936626,
    "longitude": 2.192704
  },
  {
    "id": "cbace074-fcd2-4552-b507-ffbe167a8ed1",
    "name": "Glastint",
    "logo": "true",
    "phone": "+377 93 25 82 00",
    "website": "https://www.glastint.com/partenariat-tesla-owners-france/",
    "address": "4 rue Joseph Bressan",
    "city": "Monaco",
    "postal_code": "98000",
    "country": "Monaco",
    "category": "Detailing",
    "members_benefits": "https://www.glastint.com/partenariat-tesla-owners-france/",
    "benefits_conditions": "carte ou facture adhesion",
    "latitude": 43.7321135,
    "longitude": 7.4155024
  },
  {
    "id": "51f13535-a328-4d0a-ad33-f974c6a841bc",
    "name": "JM Cuir Auto",
    "logo": "true",
    "phone": "",
    "website": "",
    "address": "",
    "city": "",
    "postal_code": "",
    "country": "",
    "category": "Accessoires auto",
    "members_benefits": "-10% sur devis",
    "benefits_conditions": "badge"
  },
  {
    "id": "e10c9828-86a7-4820-9656-75a3eb94d032",
    "name": "Wrapping Protect",
    "logo": "true",
    "phone": "06 78 4 6 70 9 2",
    "website": "https://www.wrappingprotect.fr",
    "address": "2 rue de la Valllée",
    "city": "LE HAVRE",
    "postal_code": "76600",
    "country": "FRANCE",
    "category": "Detailing",
    "members_benefits": "Pour toute commande de pose de covering ou de PPF, une céramique d'une valeur de 350 € sera offerte.",
    "benefits_conditions": "carte",
    "latitude": 49.4925773,
    "longitude": 0.1250681
  },
  {
    "id": "e877ed84-603b-47ff-b387-cf109b34b7d9",
    "name": "KONI",
    "logo": "true",
    "phone": "+33 6 70 46 46 08",
    "website": "www.koni.fr",
    "address": "885 avenue du docteur Julien Lefebvre",
    "city": "Villeneuve Loube",
    "postal_code": "06270",
    "country": "France",
    "category": "Garage",
    "members_benefits": "Stéphane DUCREAU - +33 6 70 46 46 08",
    "benefits_conditions": ""
  },
  {
    "id": "51fa7a0f-c8ad-4ca6-ba86-14ae8e2e0f51",
    "name": "Groupe Albax - Carrosserie Lecoq",
    "logo": "true",
    "phone": "04 92 02 68 68",
    "website": "https://www.albax.fr/",
    "address": "126 avenue Léon Bérenger",
    "city": "SAINT-LAURENT-DU-VAR",
    "postal_code": "06700",
    "country": "France",
    "category": "Garage",
    "members_benefits": "● Avantage 1 : - 20% de remise sur la main d’oeuvre (hors sinistres pris en\ncharge par l’assurance et hors bris de glace) dans les trois établissements\nTesla Approved Bodyshop (Lecoq Paris, Lecoq Riviera, Carrosserie Albax\nParis 15).",
    "benefits_conditions": "Carte adhérent",
    "latitude": 43.6598941,
    "longitude": 7.1930374
  },
  {
    "id": "eee473c7-d99d-48e4-b5aa-ae16522b28fa",
    "name": "TRAVELSPA",
    "logo": "true",
    "phone": "01 76 49 15 15",
    "website": "https://www.thalasseo.com/",
    "address": "Campus VP, 330 rue Pascal Duverger",
    "city": "Aix-en-Provence",
    "postal_code": "13090",
    "country": "France",
    "category": "Tourisme",
    "members_benefits": "Thalasseo consent des tarifs préférentiels sur les séjours de bien être à chaque ayant droit ainsi qu’à leurs\naccompagnants (es).\nLes réductions sont exclusivement applicables sur la base des forfaits de thalassothérapie, Spa ou Thermal Spa,\navec ou sans hébergement, mais également sur certaines prestations des soins à la carte et séjours sans soins\nsauf sur les cartes cadeau et les produits Thalazur.\nLes réductions ne sont en aucun cas cumulables avec d’autres offres promotionnelles.\nLes réductions sont applicables sur précision du code suivant remis par Thalasseo :\n\nCSETHTOCF65\nLes demandes d’informations complémentaires peuvent se faire du lundi au samedi de 9h à 19h :\nPar email : resa.cse@thalasseo.com\nPar téléphone : 01 76 49 15 15",
    "benefits_conditions": "Lors de la réservation, l’adhérent indique son appartenance au CLUB en remplissant son code avantage à la fin de sa\nréservation sur le site internet ou en le mentionnant au conseiller au téléphone. Lors de la réservation il pourra être\ndemandé au salarié un justificatif d’appartenance à la société.",
    "latitude": 43.5298424,
    "longitude": 5.4474738
  },
  {
    "id": "9d739860-f8b7-47bb-87c5-51f048862e2e",
    "name": "Ma Borne de Recharge",
    "logo": "true",
    "phone": "06 62 75 08 81",
    "website": "https://mabornederecharge.net",
    "address": "20 Passage de la Luciline",
    "city": "Rouen",
    "postal_code": "76000",
    "country": "France",
    "category": "Recharge",
    "members_benefits": "Une réduction de 150 € pour tout adhérent souhaitant profiter\nde l'offre 'Pack : Fourniture & Pose'",
    "benefits_conditions": "Présentation de justificatif adhésion (facture, carte..)",
    "latitude": 49.445355,
    "longitude": 1.068125
  },
  {
    "id": "02ee74e9-4cd0-4ca2-ab15-f7027fb99f46",
    "name": "LocaLease",
    "logo": "true",
    "phone": "0487010001",
    "website": "www.localease.fr",
    "address": "19 IMPASSE DES CONQUËTES",
    "city": "SAINT TROPEZ",
    "postal_code": "83990",
    "country": "France",
    "category": "Leasing",
    "members_benefits": "Borne de recharge offerte ou un mois de loyer offert pour les adhérents du club\n3000 km offerts sur leur contrat",
    "benefits_conditions": "via la commande sur le site",
    "latitude": 43.2690101,
    "longitude": 6.6386084
  },
  {
    "id": "d63d52b7-dc86-4173-a379-cc52d255d93c",
    "name": "ADS Jantes Toulouse",
    "logo": "true",
    "phone": "06.60.54.96.26",
    "website": "",
    "address": "475 CHEMIN DES AGRIES",
    "city": "LABARTHE SUR LEZE",
    "postal_code": "31860",
    "country": "France",
    "category": "Réparation jantes",
    "members_benefits": "",
    "benefits_conditions": "",
    "latitude": 43.4649875,
    "longitude": 1.3937182
  },
  {
    "id": "25816d0a-60ef-4a47-9193-b2540e8f9771",
    "name": "SwissLife Valdahon",
    "logo": "true",
    "phone": "03 39 79 04 90",
    "website": "",
    "address": "40 Grande Rue",
    "city": "Valdahon",
    "postal_code": "25800",
    "country": "France",
    "category": "Assurance",
    "members_benefits": "- Nous proposons des études gratuites sur u n ou plusieurs rendez-vous :\n• Étude patrimoniale OFFERTE\n• Étude fiscale OFFERTE\n- Nous proposons des frais négociés pour tout contrat effectué suite à nos\nétudes.\n- Nous proposerons des remises supplémentaires si un client s'équipe d e\nplusieurs contrats sur une période d e 12 mois.\n- Rachat assurance de prêt immobilier personnel ou professionnel avec frais\nde dossier négociés. (50% du tarif d e base appliqué)",
    "benefits_conditions": "",
    "latitude": 47.1474039,
    "longitude": 6.3437331
  },
  {
    "id": "c37e67dd-a5a7-48c4-9d14-bbb055ccba40",
    "name": "Sensas Marne-La-Vallée",
    "logo": "true",
    "phone": "0186046413",
    "website": "https://marnelavallee.sensas.top/",
    "address": "10 rue Noeu Guimante",
    "city": "Saint Thibault des Vignes",
    "postal_code": "77400",
    "country": "France",
    "category": "Tourisme",
    "members_benefits": "2€ de remise par personnes, avec un minimum de 4 participants",
    "benefits_conditions": "",
    "latitude": 48.8683837,
    "longitude": 2.6877273
  },
  {
    "id": "5f556da4-d995-4441-bb88-51d577dafafe",
    "name": "EV-TECH Center",
    "logo": "true",
    "phone": "0687465577",
    "website": "https://evtechcenter.fr/",
    "address": "13 Avenue Joseph Froelicher",
    "city": "Ferrière-en-brie",
    "postal_code": "77164",
    "country": "France",
    "category": "Garage",
    "members_benefits": "- Remise expulsive de 10% sur la main d'œuvre avec code promo EVTECH10 sur réparation et entretien\n- Forfait filtre habitable et essuie-glaces pour 3 et Y à 49,99 € TTC\n- Check-up du train roulant offert sur S et X. contrôle visuel des éléments de suspension, direction et liaison au sol.",
    "benefits_conditions": "sur présentation d'un justificatif adhésion valide",
    "latitude": 48.823005418685085,
    "longitude": 2.721279543706491
  },
  {
    "id": "c51fef2f-9aa9-4491-bd23-427c6f7d79e0",
    "name": "BELTRAMINI Elec",
    "logo": "true",
    "phone": "0689687272",
    "website": "https://www.beltraminielec.fr/",
    "address": "435 Avenie des Aires",
    "city": "Gardanne",
    "postal_code": "13120",
    "country": "France",
    "category": "Recharge",
    "members_benefits": "- Remise de 10% sur les prestations d'installation de bornes de recharge\n- Mise en avant de l'écosystème Tesla",
    "benefits_conditions": "présentation justification TOCF",
    "latitude": 43.455613,
    "longitude": 5.4710661
  }
]